city,country,region,latitude,longitude,population
Rio de Janeiro,BR,Sudeste,-22.9068,-43.1729,6748000
São Paulo,BR,Sudeste,-23.5505,-46.6333,12325000
Belo Horizonte,BR,Sudeste,-19.9191,-43.9386,2722000
Salvador,BR,Nordeste,-12.9714,-38.5014,2900000
Curitiba,BR,Sul,-25.4284,-49.2733,1948000